{
    "coverage": {
        "US Census": {
            "geoid": "06085",
            "name": "Santa Clara County",
            "state": "California"
        },
        "country": "us",
        "state": "ca",
        "county": "Santa Clara",
        "city": "Santa Clara",
        "geometry": {
            "type": "Point",
            "coordinates": [
                -121.95,
                37.35
            ]
        }
    },
    "schema": 2,
    "layers": {
        "addresses": [
            {
                "name": "city",
                "protocol": "http",
                "data": "http://data.openaddresses.io/runs/885661/us/ca/city_of_santa_clara.zip",
                "note": {
                    "update frequency": "annually"
                },
                "license": {
                    "attribution": true,
                    "attribution_text": "unknown"
                },
                "contact": {
                    "name": "Marshall",
                    "email": "marshall.ballard@gmail.com"
                },
                "conform": {
                    "format": "csv",
                    "lon": "LON",
                    "lat": "LAT",
                    "number": "NUMBER",
                    "street": "STREET",
                    "unit": "UNIT",
                    "city": "CITY",
                    "district": "DISTRICT",
                    "region": "REGION",
                    "postcode": "POSTCODE",
                    "id": "ID"
                },
                "compression": "zip"
            }
        ]
    }
}